{
  "updated": "2026-07-03T06:27:36.422266+00:00",
  "days": 3,
  "places": [
    {
      "rank": 1,
      "name": "Arendal",
      "lat": 58.4611,
      "lon": 8.7692,
      "score": 0.879,
      "avg_temp_c": 24.0,
      "avg_sun_hours": 14.2,
      "avg_wind_kmh": 20.7,
      "avg_precip_prob": 16.0
    },
    {
      "rank": 2,
      "name": "Asnes Camping (Sandefjord)",
      "lat": 59.0983,
      "lon": 10.2419,
      "score": 0.858,
      "avg_temp_c": 22.4,
      "avg_sun_hours": 15.0,
      "avg_wind_kmh": 18.8,
      "avg_precip_prob": 28.0
    },
    {
      "rank": 3,
      "name": "Larvik Bobilparkering",
      "lat": 59.049,
      "lon": 10.0335,
      "score": 0.857,
      "avg_temp_c": 22.6,
      "avg_sun_hours": 14.4,
      "avg_wind_kmh": 17.2,
      "avg_precip_prob": 29.0
    },
    {
      "rank": 4,
      "name": "Fredrikstad Bobilparking",
      "lat": 59.2226,
      "lon": 10.9173,
      "score": 0.854,
      "avg_temp_c": 22.2,
      "avg_sun_hours": 15.0,
      "avg_wind_kmh": 18.3,
      "avg_precip_prob": 26.0
    },
    {
      "rank": 5,
      "name": "Aktivitetsbyen Gamle Fredrikstad",
      "lat": 59.2009,
      "lon": 10.9629,
      "score": 0.851,
      "avg_temp_c": 22.2,
      "avg_sun_hours": 15.0,
      "avg_wind_kmh": 18.6,
      "avg_precip_prob": 26.0
    },
    {
      "rank": 6,
      "name": "Ørastranda Camping (Nøtterøy)",
      "lat": 59.2143,
      "lon": 10.3702,
      "score": 0.849,
      "avg_temp_c": 22.0,
      "avg_sun_hours": 15.0,
      "avg_wind_kmh": 17.8,
      "avg_precip_prob": 28.0
    },
    {
      "rank": 7,
      "name": "Granholmen Camping (Sandefjord)",
      "lat": 59.0888,
      "lon": 10.2229,
      "score": 0.845,
      "avg_temp_c": 22.0,
      "avg_sun_hours": 15.0,
      "avg_wind_kmh": 18.4,
      "avg_precip_prob": 28.0
    },
    {
      "rank": 8,
      "name": "Langeby Camping (Sandefjord)",
      "lat": 59.0789,
      "lon": 10.2627,
      "score": 0.845,
      "avg_temp_c": 22.0,
      "avg_sun_hours": 15.0,
      "avg_wind_kmh": 18.4,
      "avg_precip_prob": 28.0
    },
    {
      "rank": 9,
      "name": "Vora Camping (Sandefjord)",
      "lat": 59.0715,
      "lon": 10.2596,
      "score": 0.839,
      "avg_temp_c": 21.9,
      "avg_sun_hours": 15.0,
      "avg_wind_kmh": 18.8,
      "avg_precip_prob": 28.0
    },
    {
      "rank": 10,
      "name": "Nøtterøy Familiecamping Fjærholmen",
      "lat": 59.225,
      "lon": 10.4633,
      "score": 0.83,
      "avg_temp_c": 21.9,
      "avg_sun_hours": 15.0,
      "avg_wind_kmh": 20.0,
      "avg_precip_prob": 28.0
    },
    {
      "rank": 11,
      "name": "Furustrand AS (Tolvsrød)",
      "lat": 59.2731,
      "lon": 10.4916,
      "score": 0.827,
      "avg_temp_c": 21.9,
      "avg_sun_hours": 15.0,
      "avg_wind_kmh": 20.4,
      "avg_precip_prob": 30.0
    },
    {
      "rank": 12,
      "name": "Enhus Camping (Fredrikstad)",
      "lat": 59.186,
      "lon": 10.9021,
      "score": 0.825,
      "avg_temp_c": 21.5,
      "avg_sun_hours": 15.0,
      "avg_wind_kmh": 18.6,
      "avg_precip_prob": 26.0
    },
    {
      "rank": 13,
      "name": "Lagunen Camping & Stugor (Strömstad)",
      "lat": 58.9135,
      "lon": 11.2052,
      "score": 0.802,
      "avg_temp_c": 21.0,
      "avg_sun_hours": 15.0,
      "avg_wind_kmh": 19.1,
      "avg_precip_prob": 23.0
    },
    {
      "rank": 14,
      "name": "Odden Camping (Evje)",
      "lat": 58.5857,
      "lon": 7.7943,
      "score": 0.801,
      "avg_temp_c": 20.8,
      "avg_sun_hours": 14.5,
      "avg_wind_kmh": 15.9,
      "avg_precip_prob": 9.0
    },
    {
      "rank": 15,
      "name": "Daftö Resort (Strömstad)",
      "lat": 58.904,
      "lon": 11.1999,
      "score": 0.798,
      "avg_temp_c": 20.9,
      "avg_sun_hours": 15.0,
      "avg_wind_kmh": 19.1,
      "avg_precip_prob": 23.0
    },
    {
      "rank": 16,
      "name": "First Camp City Strömstad",
      "lat": 58.9305,
      "lon": 11.1799,
      "score": 0.792,
      "avg_temp_c": 21.2,
      "avg_sun_hours": 15.0,
      "avg_wind_kmh": 21.6,
      "avg_precip_prob": 23.0
    },
    {
      "rank": 17,
      "name": "Selätter Camping (Strömstad)",
      "lat": 58.9565,
      "lon": 11.1573,
      "score": 0.792,
      "avg_temp_c": 21.1,
      "avg_sun_hours": 15.0,
      "avg_wind_kmh": 21.1,
      "avg_precip_prob": 23.0
    },
    {
      "rank": 18,
      "name": "Fennefoss Camping (Evje/Hornnes)",
      "lat": 58.5752,
      "lon": 7.7763,
      "score": 0.779,
      "avg_temp_c": 20.6,
      "avg_sun_hours": 14.3,
      "avg_wind_kmh": 17.0,
      "avg_precip_prob": 9.0
    },
    {
      "rank": 19,
      "name": "Oddestemmen Steinsliperi og Camping (Evje)",
      "lat": 58.6008,
      "lon": 7.843,
      "score": 0.773,
      "avg_temp_c": 19.9,
      "avg_sun_hours": 15.0,
      "avg_wind_kmh": 17.3,
      "avg_precip_prob": 9.0
    },
    {
      "rank": 20,
      "name": "Hafsten Resort & Camping (Uddevalla)",
      "lat": 58.3145,
      "lon": 11.7235,
      "score": 0.755,
      "avg_temp_c": 20.9,
      "avg_sun_hours": 14.2,
      "avg_wind_kmh": 21.6,
      "avg_precip_prob": 45.0
    },
    {
      "rank": 21,
      "name": "Solplassen & Rakke Camping (Stavern)",
      "lat": 58.9842,
      "lon": 10.0303,
      "score": 0.753,
      "avg_temp_c": 21.6,
      "avg_sun_hours": 13.6,
      "avg_wind_kmh": 22.9,
      "avg_precip_prob": 29.0
    },
    {
      "rank": 22,
      "name": "Göteborg",
      "lat": 57.7089,
      "lon": 11.9746,
      "score": 0.748,
      "avg_temp_c": 21.6,
      "avg_sun_hours": 13.8,
      "avg_wind_kmh": 24.5,
      "avg_precip_prob": 45.0
    },
    {
      "rank": 23,
      "name": "Fossen Camping (Uddevalla)",
      "lat": 58.3173,
      "lon": 11.565,
      "score": 0.735,
      "avg_temp_c": 20.8,
      "avg_sun_hours": 14.0,
      "avg_wind_kmh": 23.0,
      "avg_precip_prob": 42.0
    },
    {
      "rank": 24,
      "name": "Tromso Camping",
      "lat": 69.6475,
      "lon": 19.014,
      "score": 0.711,
      "avg_temp_c": 17.7,
      "avg_sun_hours": 14.6,
      "avg_wind_kmh": 12.4,
      "avg_precip_prob": 46.0
    },
    {
      "rank": 25,
      "name": "Sigernessjøen Family Camping",
      "lat": 60.1182,
      "lon": 12.0538,
      "score": 0.708,
      "avg_temp_c": 19.7,
      "avg_sun_hours": 12.7,
      "avg_wind_kmh": 15.0,
      "avg_precip_prob": 60.0
    },
    {
      "rank": 26,
      "name": "Lillehammer Turistsenter",
      "lat": 61.126,
      "lon": 10.4417,
      "score": 0.694,
      "avg_temp_c": 21.0,
      "avg_sun_hours": 11.0,
      "avg_wind_kmh": 16.2,
      "avg_precip_prob": 63.0
    },
    {
      "rank": 27,
      "name": "Kristiansand Feriesenter",
      "lat": 58.122,
      "lon": 8.0658,
      "score": 0.675,
      "avg_temp_c": 20.8,
      "avg_sun_hours": 14.0,
      "avg_wind_kmh": 31.5,
      "avg_precip_prob": 10.0
    },
    {
      "rank": 28,
      "name": "Camp Gressela",
      "lat": 57.4545,
      "lon": 12.1341,
      "score": 0.673,
      "avg_temp_c": 20.6,
      "avg_sun_hours": 12.5,
      "avg_wind_kmh": 23.8,
      "avg_precip_prob": 49.0
    },
    {
      "rank": 29,
      "name": "Lothepus camping og hytter (Odda)",
      "lat": 60.0649,
      "lon": 6.5529,
      "score": 0.671,
      "avg_temp_c": 19.4,
      "avg_sun_hours": 10.2,
      "avg_wind_kmh": 7.3,
      "avg_precip_prob": 99.0
    },
    {
      "rank": 30,
      "name": "DCU-Camping Odense",
      "lat": 55.3696,
      "lon": 10.3928,
      "score": 0.665,
      "avg_temp_c": 20.9,
      "avg_sun_hours": 12.7,
      "avg_wind_kmh": 27.5,
      "avg_precip_prob": 27.0
    },
    {
      "rank": 31,
      "name": "Langøya Camping (Oslo)",
      "lat": 59.8722,
      "lon": 10.7154,
      "score": 0.658,
      "avg_temp_c": 21.7,
      "avg_sun_hours": 10.6,
      "avg_wind_kmh": 23.2,
      "avg_precip_prob": 41.0
    },
    {
      "rank": 32,
      "name": "Gjøvik Campingsenter",
      "lat": 60.8195,
      "lon": 10.6776,
      "score": 0.644,
      "avg_temp_c": 20.4,
      "avg_sun_hours": 9.9,
      "avg_wind_kmh": 15.1,
      "avg_precip_prob": 59.0
    },
    {
      "rank": 33,
      "name": "Gjøvik bobilpark Furuseth Gård",
      "lat": 60.8161,
      "lon": 10.6787,
      "score": 0.643,
      "avg_temp_c": 20.5,
      "avg_sun_hours": 9.9,
      "avg_wind_kmh": 15.7,
      "avg_precip_prob": 59.0
    },
    {
      "rank": 34,
      "name": "Elverum Camping",
      "lat": 60.8668,
      "lon": 11.5562,
      "score": 0.633,
      "avg_temp_c": 19.8,
      "avg_sun_hours": 10.6,
      "avg_wind_kmh": 16.6,
      "avg_precip_prob": 59.0
    },
    {
      "rank": 35,
      "name": "Sveastranda Camping (Gjøvik)",
      "lat": 60.889,
      "lon": 10.6757,
      "score": 0.63,
      "avg_temp_c": 19.5,
      "avg_sun_hours": 11.4,
      "avg_wind_kmh": 19.0,
      "avg_precip_prob": 61.0
    },
    {
      "rank": 36,
      "name": "Skagen",
      "lat": 57.7208,
      "lon": 10.5844,
      "score": 0.626,
      "avg_temp_c": 19.6,
      "avg_sun_hours": 15.0,
      "avg_wind_kmh": 36.4,
      "avg_precip_prob": 11.0
    },
    {
      "rank": 37,
      "name": "Böda Sand (Öland)",
      "lat": 57.2741,
      "lon": 17.0513,
      "score": 0.619,
      "avg_temp_c": 21.1,
      "avg_sun_hours": 9.5,
      "avg_wind_kmh": 20.5,
      "avg_precip_prob": 62.0
    },
    {
      "rank": 38,
      "name": "Vita Sands Camping (Kalmar)",
      "lat": 56.5686,
      "lon": 16.2251,
      "score": 0.617,
      "avg_temp_c": 21.6,
      "avg_sun_hours": 9.3,
      "avg_wind_kmh": 22.6,
      "avg_precip_prob": 75.0
    },
    {
      "rank": 39,
      "name": "Åsa Camping & Havsbad",
      "lat": 57.3483,
      "lon": 12.1223,
      "score": 0.615,
      "avg_temp_c": 20.4,
      "avg_sun_hours": 12.3,
      "avg_wind_kmh": 30.0,
      "avg_precip_prob": 49.0
    },
    {
      "rank": 40,
      "name": "Kalmar Camping Rafshagsudden",
      "lat": 56.757,
      "lon": 16.3798,
      "score": 0.612,
      "avg_temp_c": 21.7,
      "avg_sun_hours": 8.7,
      "avg_wind_kmh": 21.2,
      "avg_precip_prob": 76.0
    },
    {
      "rank": 41,
      "name": "Topcamp Mjøsa (Brumunddal)",
      "lat": 60.8795,
      "lon": 10.8907,
      "score": 0.611,
      "avg_temp_c": 20.2,
      "avg_sun_hours": 9.3,
      "avg_wind_kmh": 15.9,
      "avg_precip_prob": 66.0
    },
    {
      "rank": 42,
      "name": "Fossen Camping Fagernes",
      "lat": 61.0333,
      "lon": 9.1769,
      "score": 0.608,
      "avg_temp_c": 18.4,
      "avg_sun_hours": 11.1,
      "avg_wind_kmh": 14.9,
      "avg_precip_prob": 49.0
    },
    {
      "rank": 43,
      "name": "Sandbybadets Camping (Öland)",
      "lat": 57.1739,
      "lon": 17.0374,
      "score": 0.605,
      "avg_temp_c": 21.1,
      "avg_sun_hours": 9.8,
      "avg_wind_kmh": 23.9,
      "avg_precip_prob": 62.0
    },
    {
      "rank": 44,
      "name": "Saksild Strand Camping (Odder)",
      "lat": 55.9797,
      "lon": 10.2479,
      "score": 0.602,
      "avg_temp_c": 20.4,
      "avg_sun_hours": 12.4,
      "avg_wind_kmh": 32.3,
      "avg_precip_prob": 24.0
    },
    {
      "rank": 45,
      "name": "Vallersvik Camping and Hostel",
      "lat": 57.3207,
      "lon": 12.1589,
      "score": 0.599,
      "avg_temp_c": 20.1,
      "avg_sun_hours": 12.6,
      "avg_wind_kmh": 32.0,
      "avg_precip_prob": 49.0
    },
    {
      "rank": 46,
      "name": "Byklestøylane Camping (Bykle)",
      "lat": 59.3894,
      "lon": 7.3929,
      "score": 0.595,
      "avg_temp_c": 15.8,
      "avg_sun_hours": 13.8,
      "avg_wind_kmh": 15.0,
      "avg_precip_prob": 45.0
    },
    {
      "rank": 47,
      "name": "Rena camping leisure",
      "lat": 61.1384,
      "lon": 11.3796,
      "score": 0.591,
      "avg_temp_c": 19.1,
      "avg_sun_hours": 9.5,
      "avg_wind_kmh": 13.8,
      "avg_precip_prob": 67.0
    },
    {
      "rank": 48,
      "name": "Fagernes Camping Park",
      "lat": 60.9818,
      "lon": 9.2314,
      "score": 0.587,
      "avg_temp_c": 18.1,
      "avg_sun_hours": 10.7,
      "avg_wind_kmh": 14.4,
      "avg_precip_prob": 49.0
    },
    {
      "rank": 49,
      "name": "KronoCamping Saxnäs (Öland)",
      "lat": 56.6863,
      "lon": 16.4836,
      "score": 0.583,
      "avg_temp_c": 21.7,
      "avg_sun_hours": 8.7,
      "avg_wind_kmh": 25.3,
      "avg_precip_prob": 76.0
    },
    {
      "rank": 50,
      "name": "First Camp Ajstrup Strand (Aarhus)",
      "lat": 56.0415,
      "lon": 10.2643,
      "score": 0.582,
      "avg_temp_c": 20.1,
      "avg_sun_hours": 12.8,
      "avg_wind_kmh": 35.3,
      "avg_precip_prob": 32.0
    },
    {
      "rank": 51,
      "name": "Rörviks camping (Onsala)",
      "lat": 57.4175,
      "lon": 11.9402,
      "score": 0.574,
      "avg_temp_c": 19.6,
      "avg_sun_hours": 13.2,
      "avg_wind_kmh": 35.6,
      "avg_precip_prob": 44.0
    },
    {
      "rank": 52,
      "name": "Gålö Havsbad (Stockholm skärgård)",
      "lat": 59.0951,
      "lon": 18.3184,
      "score": 0.571,
      "avg_temp_c": 20.2,
      "avg_sun_hours": 9.2,
      "avg_wind_kmh": 21.2,
      "avg_precip_prob": 86.0
    },
    {
      "rank": 53,
      "name": "Rogn Camping (Ryfoss, Valdres)",
      "lat": 61.1519,
      "lon": 8.7259,
      "score": 0.57,
      "avg_temp_c": 17.4,
      "avg_sun_hours": 11.0,
      "avg_wind_kmh": 14.4,
      "avg_precip_prob": 41.0
    },
    {
      "rank": 54,
      "name": "DCU-Camping Aarhus Blommehaven",
      "lat": 56.1103,
      "lon": 10.2323,
      "score": 0.568,
      "avg_temp_c": 20.0,
      "avg_sun_hours": 12.1,
      "avg_wind_kmh": 33.6,
      "avg_precip_prob": 32.0
    },
    {
      "rank": 55,
      "name": "Olympiaparken sommercamping (Lillehammer)",
      "lat": 61.1329,
      "lon": 10.506,
      "score": 0.557,
      "avg_temp_c": 17.1,
      "avg_sun_hours": 11.1,
      "avg_wind_kmh": 15.0,
      "avg_precip_prob": 63.0
    },
    {
      "rank": 56,
      "name": "Wohnmobil-Parkplatz Strandvegen (Hamar)",
      "lat": 60.802,
      "lon": 11.0264,
      "score": 0.557,
      "avg_temp_c": 20.1,
      "avg_sun_hours": 8.5,
      "avg_wind_kmh": 19.4,
      "avg_precip_prob": 54.0
    },
    {
      "rank": 57,
      "name": "Espeviks Camping (Varberg)",
      "lat": 57.1911,
      "lon": 12.1897,
      "score": 0.547,
      "avg_temp_c": 19.6,
      "avg_sun_hours": 13.2,
      "avg_wind_kmh": 39.5,
      "avg_precip_prob": 49.0
    },
    {
      "rank": 58,
      "name": "Halmstad",
      "lat": 56.6745,
      "lon": 12.8567,
      "score": 0.545,
      "avg_temp_c": 20.0,
      "avg_sun_hours": 11.4,
      "avg_wind_kmh": 33.7,
      "avg_precip_prob": 56.0
    },
    {
      "rank": 59,
      "name": "Bøflaten Camping (Vang i Valdres)",
      "lat": 61.1306,
      "lon": 8.5445,
      "score": 0.544,
      "avg_temp_c": 16.8,
      "avg_sun_hours": 11.2,
      "avg_wind_kmh": 15.7,
      "avg_precip_prob": 52.0
    },
    {
      "rank": 60,
      "name": "Askrike Camping (Vaxholm)",
      "lat": 59.3868,
      "lon": 18.2441,
      "score": 0.544,
      "avg_temp_c": 20.3,
      "avg_sun_hours": 7.8,
      "avg_wind_kmh": 19.1,
      "avg_precip_prob": 90.0
    },
    {
      "rank": 61,
      "name": "Sandviks Camping (Öland)",
      "lat": 56.379,
      "lon": 16.4036,
      "score": 0.542,
      "avg_temp_c": 22.0,
      "avg_sun_hours": 8.5,
      "avg_wind_kmh": 31.8,
      "avg_precip_prob": 75.0
    },
    {
      "rank": 62,
      "name": "Laerdal Holiday and Leisure Park",
      "lat": 61.1005,
      "lon": 7.4697,
      "score": 0.533,
      "avg_temp_c": 17.6,
      "avg_sun_hours": 8.9,
      "avg_wind_kmh": 11.2,
      "avg_precip_prob": 95.0
    },
    {
      "rank": 63,
      "name": "Getteröns Camping (Varberg)",
      "lat": 57.1165,
      "lon": 12.2141,
      "score": 0.523,
      "avg_temp_c": 19.5,
      "avg_sun_hours": 13.2,
      "avg_wind_kmh": 42.3,
      "avg_precip_prob": 49.0
    },
    {
      "rank": 64,
      "name": "Esbjerg Camping A/S",
      "lat": 55.5128,
      "lon": 8.3886,
      "score": 0.523,
      "avg_temp_c": 18.8,
      "avg_sun_hours": 12.1,
      "avg_wind_kmh": 33.6,
      "avg_precip_prob": 54.0
    },
    {
      "rank": 65,
      "name": "Hansagårds Camping (Falkenberg)",
      "lat": 56.8744,
      "lon": 12.5298,
      "score": 0.519,
      "avg_temp_c": 19.6,
      "avg_sun_hours": 11.8,
      "avg_wind_kmh": 37.1,
      "avg_precip_prob": 54.0
    },
    {
      "rank": 66,
      "name": "Rystad Lofoten Camping",
      "lat": 68.2778,
      "lon": 14.3035,
      "score": 0.514,
      "avg_temp_c": 15.9,
      "avg_sun_hours": 10.8,
      "avg_wind_kmh": 13.3,
      "avg_precip_prob": 35.0
    },
    {
      "rank": 67,
      "name": "Destination Apelviken (Varberg)",
      "lat": 57.088,
      "lon": 12.2479,
      "score": 0.514,
      "avg_temp_c": 19.4,
      "avg_sun_hours": 13.1,
      "avg_wind_kmh": 42.6,
      "avg_precip_prob": 49.0
    },
    {
      "rank": 68,
      "name": "Solhaga Camping (Fårö)",
      "lat": 57.8899,
      "lon": 19.091,
      "score": 0.504,
      "avg_temp_c": 19.6,
      "avg_sun_hours": 9.7,
      "avg_wind_kmh": 29.6,
      "avg_precip_prob": 82.0
    },
    {
      "rank": 69,
      "name": "Fide Äventyrsby & Camping (Gotland)",
      "lat": 57.092,
      "lon": 18.301,
      "score": 0.504,
      "avg_temp_c": 20.5,
      "avg_sun_hours": 8.3,
      "avg_wind_kmh": 28.2,
      "avg_precip_prob": 76.0
    },
    {
      "rank": 70,
      "name": "Hansagård Camping Strand (Falkenberg)",
      "lat": 56.8721,
      "lon": 12.527,
      "score": 0.503,
      "avg_temp_c": 19.5,
      "avg_sun_hours": 12.0,
      "avg_wind_kmh": 39.6,
      "avg_precip_prob": 54.0
    },
    {
      "rank": 71,
      "name": "Brädäng Camping (Stockholm)",
      "lat": 59.2956,
      "lon": 17.9232,
      "score": 0.501,
      "avg_temp_c": 19.9,
      "avg_sun_hours": 7.5,
      "avg_wind_kmh": 21.7,
      "avg_precip_prob": 81.0
    },
    {
      "rank": 72,
      "name": "København",
      "lat": 55.6761,
      "lon": 12.5683,
      "score": 0.501,
      "avg_temp_c": 20.0,
      "avg_sun_hours": 9.2,
      "avg_wind_kmh": 30.0,
      "avg_precip_prob": 49.0
    },
    {
      "rank": 73,
      "name": "Olofsbo Camping (Falkenberg)",
      "lat": 56.9229,
      "lon": 12.3924,
      "score": 0.495,
      "avg_temp_c": 19.5,
      "avg_sun_hours": 12.1,
      "avg_wind_kmh": 41.2,
      "avg_precip_prob": 54.0
    },
    {
      "rank": 74,
      "name": "Voss Camping",
      "lat": 60.6246,
      "lon": 6.4214,
      "score": 0.493,
      "avg_temp_c": 17.6,
      "avg_sun_hours": 7.5,
      "avg_wind_kmh": 10.5,
      "avg_precip_prob": 99.0
    },
    {
      "rank": 75,
      "name": "Lofoten Fjordcamp",
      "lat": 68.204,
      "lon": 13.8875,
      "score": 0.469,
      "avg_temp_c": 15.3,
      "avg_sun_hours": 10.8,
      "avg_wind_kmh": 16.5,
      "avg_precip_prob": 36.0
    },
    {
      "rank": 76,
      "name": "Kjørnes Camping (Sogndal)",
      "lat": 61.2117,
      "lon": 7.121,
      "score": 0.462,
      "avg_temp_c": 16.8,
      "avg_sun_hours": 7.9,
      "avg_wind_kmh": 12.4,
      "avg_precip_prob": 95.0
    },
    {
      "rank": 77,
      "name": "Uteplassen Sogndal Fjell og natur-camping",
      "lat": 61.3391,
      "lon": 6.9264,
      "score": 0.452,
      "avg_temp_c": 15.0,
      "avg_sun_hours": 9.0,
      "avg_wind_kmh": 9.1,
      "avg_precip_prob": 95.0
    },
    {
      "rank": 78,
      "name": "Lofoten Bobilcamping",
      "lat": 68.2253,
      "lon": 14.2172,
      "score": 0.45,
      "avg_temp_c": 15.8,
      "avg_sun_hours": 9.6,
      "avg_wind_kmh": 16.3,
      "avg_precip_prob": 35.0
    },
    {
      "rank": 79,
      "name": "Forde Guesthouse & Camping",
      "lat": 61.4496,
      "lon": 5.8922,
      "score": 0.428,
      "avg_temp_c": 16.8,
      "avg_sun_hours": 6.1,
      "avg_wind_kmh": 9.0,
      "avg_precip_prob": 100.0
    },
    {
      "rank": 80,
      "name": "Førde Bobilparkering",
      "lat": 61.4581,
      "lon": 5.8464,
      "score": 0.425,
      "avg_temp_c": 16.8,
      "avg_sun_hours": 6.0,
      "avg_wind_kmh": 9.0,
      "avg_precip_prob": 100.0
    },
    {
      "rank": 81,
      "name": "Sannes Familiecamping (Bornholm)",
      "lat": 55.1959,
      "lon": 14.9865,
      "score": 0.42,
      "avg_temp_c": 19.7,
      "avg_sun_hours": 9.3,
      "avg_wind_kmh": 40.2,
      "avg_precip_prob": 34.0
    },
    {
      "rank": 82,
      "name": "Veganeset Camping (Balestrand)",
      "lat": 61.2158,
      "lon": 6.562,
      "score": 0.417,
      "avg_temp_c": 15.6,
      "avg_sun_hours": 7.6,
      "avg_wind_kmh": 10.9,
      "avg_precip_prob": 100.0
    },
    {
      "rank": 83,
      "name": "Lone Camping (Bergen)",
      "lat": 60.3735,
      "lon": 5.4592,
      "score": 0.416,
      "avg_temp_c": 16.4,
      "avg_sun_hours": 7.8,
      "avg_wind_kmh": 16.2,
      "avg_precip_prob": 98.0
    },
    {
      "rank": 84,
      "name": "Kneippbyn Camping (Gotland)",
      "lat": 57.6097,
      "lon": 18.2428,
      "score": 0.415,
      "avg_temp_c": 19.5,
      "avg_sun_hours": 8.8,
      "avg_wind_kmh": 37.6,
      "avg_precip_prob": 82.0
    },
    {
      "rank": 85,
      "name": "Mosvangen Camping (Stavanger)",
      "lat": 58.9524,
      "lon": 5.714,
      "score": 0.408,
      "avg_temp_c": 16.6,
      "avg_sun_hours": 9.2,
      "avg_wind_kmh": 24.8,
      "avg_precip_prob": 79.0
    },
    {
      "rank": 86,
      "name": "Gudhjem Camping (Bornholm)",
      "lat": 55.2077,
      "lon": 14.9771,
      "score": 0.403,
      "avg_temp_c": 19.6,
      "avg_sun_hours": 9.0,
      "avg_wind_kmh": 40.7,
      "avg_precip_prob": 34.0
    },
    {
      "rank": 87,
      "name": "Stavanger",
      "lat": 58.97,
      "lon": 5.7331,
      "score": 0.402,
      "avg_temp_c": 16.7,
      "avg_sun_hours": 9.4,
      "avg_wind_kmh": 27.1,
      "avg_precip_prob": 79.0
    },
    {
      "rank": 88,
      "name": "Bornholms Familie-Camping",
      "lat": 55.0051,
      "lon": 15.0951,
      "score": 0.392,
      "avg_temp_c": 19.3,
      "avg_sun_hours": 9.0,
      "avg_wind_kmh": 40.6,
      "avg_precip_prob": 48.0
    },
    {
      "rank": 89,
      "name": "Bratland Camping (Bergen)",
      "lat": 60.3523,
      "lon": 5.4353,
      "score": 0.38,
      "avg_temp_c": 16.4,
      "avg_sun_hours": 6.7,
      "avg_wind_kmh": 16.4,
      "avg_precip_prob": 98.0
    },
    {
      "rank": 90,
      "name": "First Camp Beitostølen (Valdres)",
      "lat": 61.2413,
      "lon": 8.92,
      "score": 0.377,
      "avg_temp_c": 13.7,
      "avg_sun_hours": 10.2,
      "avg_wind_kmh": 18.1,
      "avg_precip_prob": 36.0
    },
    {
      "rank": 91,
      "name": "Møllers Dueodde Camping (Bornholm)",
      "lat": 54.9958,
      "lon": 15.0789,
      "score": 0.366,
      "avg_temp_c": 19.0,
      "avg_sun_hours": 8.9,
      "avg_wind_kmh": 42.2,
      "avg_precip_prob": 48.0
    },
    {
      "rank": 92,
      "name": "Hovden Fjellstoge (Setesdal)",
      "lat": 59.5794,
      "lon": 7.3891,
      "score": 0.362,
      "avg_temp_c": 13.5,
      "avg_sun_hours": 10.0,
      "avg_wind_kmh": 18.3,
      "avg_precip_prob": 45.0
    },
    {
      "rank": 93,
      "name": "Haraldshaugen Camping (Haugesund)",
      "lat": 59.4277,
      "lon": 5.2585,
      "score": 0.342,
      "avg_temp_c": 16.2,
      "avg_sun_hours": 8.5,
      "avg_wind_kmh": 28.8,
      "avg_precip_prob": 69.0
    },
    {
      "rank": 94,
      "name": "Lyngholt Familiecamping (Bornholm)",
      "lat": 55.2555,
      "lon": 14.7623,
      "score": 0.33,
      "avg_temp_c": 18.1,
      "avg_sun_hours": 8.6,
      "avg_wind_kmh": 41.1,
      "avg_precip_prob": 34.0
    },
    {
      "rank": 95,
      "name": "Lofoten Beach Camp",
      "lat": 68.1032,
      "lon": 13.2946,
      "score": 0.3,
      "avg_temp_c": 14.4,
      "avg_sun_hours": 7.6,
      "avg_wind_kmh": 20.9,
      "avg_precip_prob": 30.0
    },
    {
      "rank": 96,
      "name": "Moskenes Camping (Lofoten)",
      "lat": 67.9001,
      "lon": 13.0524,
      "score": 0.256,
      "avg_temp_c": 13.6,
      "avg_sun_hours": 6.7,
      "avg_wind_kmh": 18.8,
      "avg_precip_prob": 28.0
    },
    {
      "rank": 97,
      "name": "Storsand Gård Camping (Trondheim)",
      "lat": 63.4322,
      "lon": 10.7086,
      "score": 0.21,
      "avg_temp_c": 14.6,
      "avg_sun_hours": 4.1,
      "avg_wind_kmh": 18.9,
      "avg_precip_prob": 95.0
    },
    {
      "rank": 98,
      "name": "Skjerva bobilparkering (Ålesund)",
      "lat": 62.4692,
      "lon": 6.1327,
      "score": 0.203,
      "avg_temp_c": 14.7,
      "avg_sun_hours": 5.5,
      "avg_wind_kmh": 26.8,
      "avg_precip_prob": 98.0
    },
    {
      "rank": 99,
      "name": "Krokane Camping AS (Florø)",
      "lat": 61.5935,
      "lon": 5.0712,
      "score": 0.193,
      "avg_temp_c": 14.6,
      "avg_sun_hours": 5.7,
      "avg_wind_kmh": 28.5,
      "avg_precip_prob": 94.0
    }
  ]
}