{
  "updated": "2026-07-03T06:58:28.832355+00:00",
  "days": 3,
  "places": [
    {
      "rank": 1,
      "name": "Arendal",
      "lat": 58.4611,
      "lon": 8.7692,
      "score": 0.92,
      "avg_temp_c": 24.2,
      "avg_sun_hours": 14.0,
      "avg_wind_kmh": 19.9,
      "avg_precip_prob": 16.0
    },
    {
      "rank": 2,
      "name": "Seljord Ferieland",
      "lat": 59.4816,
      "lon": 8.6409,
      "score": 0.899,
      "avg_temp_c": 22.6,
      "avg_sun_hours": 15.0,
      "avg_wind_kmh": 11.1,
      "avg_precip_prob": 25.0
    },
    {
      "rank": 3,
      "name": "Åsgrav Family Camping (Bø)",
      "lat": 59.4107,
      "lon": 9.1098,
      "score": 0.893,
      "avg_temp_c": 23.1,
      "avg_sun_hours": 14.6,
      "avg_wind_kmh": 13.4,
      "avg_precip_prob": 29.0
    },
    {
      "rank": 4,
      "name": "Kragerøfjorden Camping",
      "lat": 58.8434,
      "lon": 9.3533,
      "score": 0.889,
      "avg_temp_c": 22.6,
      "avg_sun_hours": 15.0,
      "avg_wind_kmh": 17.2,
      "avg_precip_prob": 21.0
    },
    {
      "rank": 5,
      "name": "Bø Camping",
      "lat": 59.4445,
      "lon": 9.063,
      "score": 0.885,
      "avg_temp_c": 22.5,
      "avg_sun_hours": 14.9,
      "avg_wind_kmh": 11.3,
      "avg_precip_prob": 29.0
    },
    {
      "rank": 6,
      "name": "Seljord Camping",
      "lat": 59.4858,
      "lon": 8.6518,
      "score": 0.885,
      "avg_temp_c": 22.3,
      "avg_sun_hours": 15.0,
      "avg_wind_kmh": 12.2,
      "avg_precip_prob": 25.0
    },
    {
      "rank": 7,
      "name": "Sanden Camping (Seljord)",
      "lat": 59.4555,
      "lon": 8.7297,
      "score": 0.884,
      "avg_temp_c": 22.5,
      "avg_sun_hours": 15.0,
      "avg_wind_kmh": 15.1,
      "avg_precip_prob": 25.0
    },
    {
      "rank": 8,
      "name": "Odden Camping (Evje)",
      "lat": 58.5857,
      "lon": 7.7943,
      "score": 0.867,
      "avg_temp_c": 21.6,
      "avg_sun_hours": 14.7,
      "avg_wind_kmh": 15.2,
      "avg_precip_prob": 9.0
    },
    {
      "rank": 9,
      "name": "Lystang Camping (Notodden)",
      "lat": 59.4621,
      "lon": 9.3191,
      "score": 0.865,
      "avg_temp_c": 22.8,
      "avg_sun_hours": 14.0,
      "avg_wind_kmh": 13.3,
      "avg_precip_prob": 28.0
    },
    {
      "rank": 10,
      "name": "Larvik Bobilparkering",
      "lat": 59.049,
      "lon": 10.0335,
      "score": 0.856,
      "avg_temp_c": 22.2,
      "avg_sun_hours": 14.8,
      "avg_wind_kmh": 16.8,
      "avg_precip_prob": 29.0
    },
    {
      "rank": 11,
      "name": "Asnes Camping (Sandefjord)",
      "lat": 59.0983,
      "lon": 10.2419,
      "score": 0.856,
      "avg_temp_c": 22.1,
      "avg_sun_hours": 15.0,
      "avg_wind_kmh": 18.3,
      "avg_precip_prob": 28.0
    },
    {
      "rank": 12,
      "name": "Fennefoss Camping (Evje/Hornnes)",
      "lat": 58.5752,
      "lon": 7.7763,
      "score": 0.851,
      "avg_temp_c": 21.5,
      "avg_sun_hours": 14.4,
      "avg_wind_kmh": 16.3,
      "avg_precip_prob": 9.0
    },
    {
      "rank": 13,
      "name": "Aktivitetsbyen Gamle Fredrikstad",
      "lat": 59.2009,
      "lon": 10.9629,
      "score": 0.85,
      "avg_temp_c": 22.0,
      "avg_sun_hours": 14.9,
      "avg_wind_kmh": 19.1,
      "avg_precip_prob": 26.0
    },
    {
      "rank": 14,
      "name": "Granholmen Camping (Sandefjord)",
      "lat": 59.0888,
      "lon": 10.2229,
      "score": 0.843,
      "avg_temp_c": 21.7,
      "avg_sun_hours": 15.0,
      "avg_wind_kmh": 17.5,
      "avg_precip_prob": 28.0
    },
    {
      "rank": 15,
      "name": "Fredrikstad Bobilparking",
      "lat": 59.2226,
      "lon": 10.9173,
      "score": 0.842,
      "avg_temp_c": 21.9,
      "avg_sun_hours": 14.7,
      "avg_wind_kmh": 18.1,
      "avg_precip_prob": 26.0
    },
    {
      "rank": 16,
      "name": "Ørastranda Camping (Nøtterøy)",
      "lat": 59.2143,
      "lon": 10.3702,
      "score": 0.842,
      "avg_temp_c": 21.7,
      "avg_sun_hours": 14.9,
      "avg_wind_kmh": 16.5,
      "avg_precip_prob": 28.0
    },
    {
      "rank": 17,
      "name": "Langeby Camping (Sandefjord)",
      "lat": 59.0789,
      "lon": 10.2627,
      "score": 0.832,
      "avg_temp_c": 21.5,
      "avg_sun_hours": 15.0,
      "avg_wind_kmh": 18.6,
      "avg_precip_prob": 28.0
    },
    {
      "rank": 18,
      "name": "Sanda Camping og Hytteutleie (Bø)",
      "lat": 59.4201,
      "lon": 8.9048,
      "score": 0.831,
      "avg_temp_c": 22.5,
      "avg_sun_hours": 13.4,
      "avg_wind_kmh": 13.8,
      "avg_precip_prob": 29.0
    },
    {
      "rank": 19,
      "name": "Beverøya Hytteutleie og Camping (Bø)",
      "lat": 59.4105,
      "lon": 9.0899,
      "score": 0.829,
      "avg_temp_c": 23.3,
      "avg_sun_hours": 12.3,
      "avg_wind_kmh": 13.4,
      "avg_precip_prob": 29.0
    },
    {
      "rank": 20,
      "name": "Vora Camping (Sandefjord)",
      "lat": 59.0715,
      "lon": 10.2596,
      "score": 0.827,
      "avg_temp_c": 21.4,
      "avg_sun_hours": 15.0,
      "avg_wind_kmh": 19.2,
      "avg_precip_prob": 28.0
    },
    {
      "rank": 21,
      "name": "Oddestemmen Steinsliperi og Camping (Evje)",
      "lat": 58.6008,
      "lon": 7.843,
      "score": 0.827,
      "avg_temp_c": 20.4,
      "avg_sun_hours": 15.0,
      "avg_wind_kmh": 16.7,
      "avg_precip_prob": 9.0
    },
    {
      "rank": 22,
      "name": "Notodden Bobilcamp",
      "lat": 59.5584,
      "lon": 9.2492,
      "score": 0.825,
      "avg_temp_c": 23.0,
      "avg_sun_hours": 12.6,
      "avg_wind_kmh": 14.6,
      "avg_precip_prob": 28.0
    },
    {
      "rank": 23,
      "name": "Jomfruland Camping (Kragerø)",
      "lat": 58.8572,
      "lon": 9.5775,
      "score": 0.824,
      "avg_temp_c": 21.4,
      "avg_sun_hours": 15.0,
      "avg_wind_kmh": 26.1,
      "avg_precip_prob": 18.0
    },
    {
      "rank": 24,
      "name": "Furustrand AS (Tolvsrød)",
      "lat": 59.2731,
      "lon": 10.4916,
      "score": 0.815,
      "avg_temp_c": 21.6,
      "avg_sun_hours": 14.6,
      "avg_wind_kmh": 20.3,
      "avg_precip_prob": 30.0
    },
    {
      "rank": 25,
      "name": "Nøtterøy Familiecamping Fjærholmen",
      "lat": 59.225,
      "lon": 10.4633,
      "score": 0.807,
      "avg_temp_c": 21.3,
      "avg_sun_hours": 14.6,
      "avg_wind_kmh": 20.3,
      "avg_precip_prob": 28.0
    },
    {
      "rank": 26,
      "name": "First Camp City Strömstad",
      "lat": 58.9305,
      "lon": 11.1799,
      "score": 0.806,
      "avg_temp_c": 20.8,
      "avg_sun_hours": 15.0,
      "avg_wind_kmh": 21.2,
      "avg_precip_prob": 23.0
    },
    {
      "rank": 27,
      "name": "Lagunen Camping & Stugor (Strömstad)",
      "lat": 58.9135,
      "lon": 11.2052,
      "score": 0.806,
      "avg_temp_c": 20.6,
      "avg_sun_hours": 15.0,
      "avg_wind_kmh": 18.4,
      "avg_precip_prob": 23.0
    },
    {
      "rank": 28,
      "name": "Daftö Resort (Strömstad)",
      "lat": 58.904,
      "lon": 11.1999,
      "score": 0.803,
      "avg_temp_c": 20.5,
      "avg_sun_hours": 15.0,
      "avg_wind_kmh": 18.3,
      "avg_precip_prob": 23.0
    },
    {
      "rank": 29,
      "name": "Enhus Camping (Fredrikstad)",
      "lat": 59.186,
      "lon": 10.9021,
      "score": 0.802,
      "avg_temp_c": 21.0,
      "avg_sun_hours": 14.6,
      "avg_wind_kmh": 19.3,
      "avg_precip_prob": 26.0
    },
    {
      "rank": 30,
      "name": "Selätter Camping (Strömstad)",
      "lat": 58.9565,
      "lon": 11.1573,
      "score": 0.799,
      "avg_temp_c": 20.6,
      "avg_sun_hours": 15.0,
      "avg_wind_kmh": 21.0,
      "avg_precip_prob": 23.0
    },
    {
      "rank": 31,
      "name": "Kristiansand Feriesenter",
      "lat": 58.122,
      "lon": 8.0658,
      "score": 0.776,
      "avg_temp_c": 21.0,
      "avg_sun_hours": 14.0,
      "avg_wind_kmh": 31.6,
      "avg_precip_prob": 10.0
    },
    {
      "rank": 32,
      "name": "Solplassen & Rakke Camping (Stavern)",
      "lat": 58.9842,
      "lon": 10.0303,
      "score": 0.766,
      "avg_temp_c": 21.1,
      "avg_sun_hours": 13.9,
      "avg_wind_kmh": 24.2,
      "avg_precip_prob": 29.0
    },
    {
      "rank": 33,
      "name": "Tinnsjø Kro Camping (Rjukan)",
      "lat": 59.9255,
      "lon": 8.801,
      "score": 0.757,
      "avg_temp_c": 21.1,
      "avg_sun_hours": 12.6,
      "avg_wind_kmh": 11.7,
      "avg_precip_prob": 30.0
    },
    {
      "rank": 34,
      "name": "Göteborg",
      "lat": 57.7089,
      "lon": 11.9746,
      "score": 0.757,
      "avg_temp_c": 21.8,
      "avg_sun_hours": 13.6,
      "avg_wind_kmh": 24.0,
      "avg_precip_prob": 45.0
    },
    {
      "rank": 35,
      "name": "Skagen",
      "lat": 57.7208,
      "lon": 10.5844,
      "score": 0.75,
      "avg_temp_c": 19.9,
      "avg_sun_hours": 14.9,
      "avg_wind_kmh": 35.7,
      "avg_precip_prob": 11.0
    },
    {
      "rank": 36,
      "name": "Rjukan Hytteby",
      "lat": 59.8787,
      "lon": 8.6058,
      "score": 0.745,
      "avg_temp_c": 20.2,
      "avg_sun_hours": 13.5,
      "avg_wind_kmh": 14.0,
      "avg_precip_prob": 30.0
    },
    {
      "rank": 37,
      "name": "Sandviken Camping (Austbygde/Rjukan)",
      "lat": 59.989,
      "lon": 8.8167,
      "score": 0.742,
      "avg_temp_c": 21.1,
      "avg_sun_hours": 12.1,
      "avg_wind_kmh": 11.5,
      "avg_precip_prob": 30.0
    },
    {
      "rank": 38,
      "name": "DCU-Camping Odense",
      "lat": 55.3696,
      "lon": 10.3928,
      "score": 0.737,
      "avg_temp_c": 21.2,
      "avg_sun_hours": 13.0,
      "avg_wind_kmh": 26.9,
      "avg_precip_prob": 27.0
    },
    {
      "rank": 39,
      "name": "Fossen Camping (Uddevalla)",
      "lat": 58.3173,
      "lon": 11.565,
      "score": 0.724,
      "avg_temp_c": 20.6,
      "avg_sun_hours": 13.7,
      "avg_wind_kmh": 22.2,
      "avg_precip_prob": 42.0
    },
    {
      "rank": 40,
      "name": "Hafsten Resort & Camping (Uddevalla)",
      "lat": 58.3145,
      "lon": 11.7235,
      "score": 0.721,
      "avg_temp_c": 20.9,
      "avg_sun_hours": 13.3,
      "avg_wind_kmh": 21.1,
      "avg_precip_prob": 45.0
    },
    {
      "rank": 41,
      "name": "Saksild Strand Camping (Odder)",
      "lat": 55.9797,
      "lon": 10.2479,
      "score": 0.675,
      "avg_temp_c": 20.9,
      "avg_sun_hours": 11.6,
      "avg_wind_kmh": 31.4,
      "avg_precip_prob": 24.0
    },
    {
      "rank": 42,
      "name": "Tromso Camping",
      "lat": 69.6475,
      "lon": 19.014,
      "score": 0.671,
      "avg_temp_c": 17.8,
      "avg_sun_hours": 14.8,
      "avg_wind_kmh": 12.9,
      "avg_precip_prob": 46.0
    },
    {
      "rank": 43,
      "name": "First Camp Ajstrup Strand (Aarhus)",
      "lat": 56.0415,
      "lon": 10.2643,
      "score": 0.67,
      "avg_temp_c": 20.6,
      "avg_sun_hours": 12.6,
      "avg_wind_kmh": 35.6,
      "avg_precip_prob": 32.0
    },
    {
      "rank": 44,
      "name": "Camp Gressela",
      "lat": 57.4545,
      "lon": 12.1341,
      "score": 0.661,
      "avg_temp_c": 20.7,
      "avg_sun_hours": 12.0,
      "avg_wind_kmh": 23.1,
      "avg_precip_prob": 49.0
    },
    {
      "rank": 45,
      "name": "Sörbostrands Camping (Vänern)",
      "lat": 58.4937,
      "lon": 12.4442,
      "score": 0.656,
      "avg_temp_c": 21.3,
      "avg_sun_hours": 10.6,
      "avg_wind_kmh": 19.8,
      "avg_precip_prob": 45.0
    },
    {
      "rank": 46,
      "name": "Duse Udde Camping (Vänern)",
      "lat": 59.082,
      "lon": 12.885,
      "score": 0.646,
      "avg_temp_c": 21.6,
      "avg_sun_hours": 10.3,
      "avg_wind_kmh": 18.1,
      "avg_precip_prob": 55.0
    },
    {
      "rank": 47,
      "name": "Åsa Camping & Havsbad",
      "lat": 57.3483,
      "lon": 12.1223,
      "score": 0.641,
      "avg_temp_c": 20.6,
      "avg_sun_hours": 12.0,
      "avg_wind_kmh": 29.0,
      "avg_precip_prob": 49.0
    },
    {
      "rank": 48,
      "name": "Dalbergså Camping (Vänern)",
      "lat": 58.5968,
      "lon": 12.5928,
      "score": 0.641,
      "avg_temp_c": 21.0,
      "avg_sun_hours": 10.8,
      "avg_wind_kmh": 20.7,
      "avg_precip_prob": 49.0
    },
    {
      "rank": 49,
      "name": "Lillehammer Turistsenter",
      "lat": 61.126,
      "lon": 10.4417,
      "score": 0.639,
      "avg_temp_c": 21.2,
      "avg_sun_hours": 10.8,
      "avg_wind_kmh": 15.9,
      "avg_precip_prob": 63.0
    },
    {
      "rank": 50,
      "name": "DCU-Camping Aarhus Blommehaven",
      "lat": 56.1103,
      "lon": 10.2323,
      "score": 0.633,
      "avg_temp_c": 20.4,
      "avg_sun_hours": 11.5,
      "avg_wind_kmh": 33.7,
      "avg_precip_prob": 32.0
    },
    {
      "rank": 51,
      "name": "Vallersvik Camping and Hostel",
      "lat": 57.3207,
      "lon": 12.1589,
      "score": 0.623,
      "avg_temp_c": 20.3,
      "avg_sun_hours": 12.0,
      "avg_wind_kmh": 31.3,
      "avg_precip_prob": 49.0
    },
    {
      "rank": 52,
      "name": "Langøya Camping (Oslo)",
      "lat": 59.8722,
      "lon": 10.7154,
      "score": 0.616,
      "avg_temp_c": 21.5,
      "avg_sun_hours": 9.4,
      "avg_wind_kmh": 25.8,
      "avg_precip_prob": 41.0
    },
    {
      "rank": 53,
      "name": "Rörviks camping (Onsala)",
      "lat": 57.4175,
      "lon": 11.9402,
      "score": 0.615,
      "avg_temp_c": 19.8,
      "avg_sun_hours": 12.4,
      "avg_wind_kmh": 35.2,
      "avg_precip_prob": 44.0
    },
    {
      "rank": 54,
      "name": "Sigernessjøen Family Camping",
      "lat": 60.1182,
      "lon": 12.0538,
      "score": 0.607,
      "avg_temp_c": 19.2,
      "avg_sun_hours": 11.8,
      "avg_wind_kmh": 12.8,
      "avg_precip_prob": 60.0
    },
    {
      "rank": 55,
      "name": "Söderköpings Camping",
      "lat": 58.477,
      "lon": 16.3345,
      "score": 0.597,
      "avg_temp_c": 21.3,
      "avg_sun_hours": 9.7,
      "avg_wind_kmh": 18.7,
      "avg_precip_prob": 65.0
    },
    {
      "rank": 56,
      "name": "Sjöbacka camping (Vättern)",
      "lat": 58.0435,
      "lon": 14.1879,
      "score": 0.596,
      "avg_temp_c": 20.7,
      "avg_sun_hours": 10.4,
      "avg_wind_kmh": 18.8,
      "avg_precip_prob": 65.0
    },
    {
      "rank": 57,
      "name": "Måräng Camping (Finspång)",
      "lat": 58.5854,
      "lon": 15.8759,
      "score": 0.592,
      "avg_temp_c": 20.9,
      "avg_sun_hours": 10.0,
      "avg_wind_kmh": 17.2,
      "avg_precip_prob": 67.0
    },
    {
      "rank": 58,
      "name": "Skeppsdockans Vandrarhem (Söderköping)",
      "lat": 58.492,
      "lon": 16.3052,
      "score": 0.581,
      "avg_temp_c": 20.9,
      "avg_sun_hours": 9.7,
      "avg_wind_kmh": 19.0,
      "avg_precip_prob": 65.0
    },
    {
      "rank": 59,
      "name": "Espeviks Camping (Varberg)",
      "lat": 57.1911,
      "lon": 12.1897,
      "score": 0.579,
      "avg_temp_c": 19.7,
      "avg_sun_hours": 12.0,
      "avg_wind_kmh": 39.4,
      "avg_precip_prob": 49.0
    },
    {
      "rank": 60,
      "name": "Elverum Camping",
      "lat": 60.8668,
      "lon": 11.5562,
      "score": 0.577,
      "avg_temp_c": 19.7,
      "avg_sun_hours": 10.3,
      "avg_wind_kmh": 14.2,
      "avg_precip_prob": 59.0
    },
    {
      "rank": 61,
      "name": "Fossen Camping Fagernes",
      "lat": 61.0333,
      "lon": 9.1769,
      "score": 0.577,
      "avg_temp_c": 18.9,
      "avg_sun_hours": 10.7,
      "avg_wind_kmh": 13.9,
      "avg_precip_prob": 49.0
    },
    {
      "rank": 62,
      "name": "Rogn Camping (Ryfoss, Valdres)",
      "lat": 61.1519,
      "lon": 8.7259,
      "score": 0.571,
      "avg_temp_c": 18.1,
      "avg_sun_hours": 11.0,
      "avg_wind_kmh": 13.1,
      "avg_precip_prob": 41.0
    },
    {
      "rank": 63,
      "name": "Kalmar Camping Rafshagsudden",
      "lat": 56.757,
      "lon": 16.3798,
      "score": 0.57,
      "avg_temp_c": 22.1,
      "avg_sun_hours": 8.7,
      "avg_wind_kmh": 21.7,
      "avg_precip_prob": 76.0
    },
    {
      "rank": 64,
      "name": "Böda Sand (Öland)",
      "lat": 57.2741,
      "lon": 17.0513,
      "score": 0.57,
      "avg_temp_c": 21.1,
      "avg_sun_hours": 9.0,
      "avg_wind_kmh": 19.8,
      "avg_precip_prob": 62.0
    },
    {
      "rank": 65,
      "name": "Charlottesborgs Camping (Kristianstad)",
      "lat": 56.0196,
      "lon": 14.1268,
      "score": 0.568,
      "avg_temp_c": 21.2,
      "avg_sun_hours": 8.6,
      "avg_wind_kmh": 27.7,
      "avg_precip_prob": 45.0
    },
    {
      "rank": 66,
      "name": "Fagernes Camping Park",
      "lat": 60.9818,
      "lon": 9.2314,
      "score": 0.567,
      "avg_temp_c": 18.6,
      "avg_sun_hours": 10.8,
      "avg_wind_kmh": 14.5,
      "avg_precip_prob": 49.0
    },
    {
      "rank": 67,
      "name": "Habo Camping & Stugby (Vättern)",
      "lat": 57.8782,
      "lon": 14.1104,
      "score": 0.567,
      "avg_temp_c": 21.0,
      "avg_sun_hours": 9.3,
      "avg_wind_kmh": 18.5,
      "avg_precip_prob": 69.0
    },
    {
      "rank": 68,
      "name": "Gjøvik bobilpark Furuseth Gård",
      "lat": 60.8161,
      "lon": 10.6787,
      "score": 0.563,
      "avg_temp_c": 20.4,
      "avg_sun_hours": 9.1,
      "avg_wind_kmh": 15.5,
      "avg_precip_prob": 59.0
    },
    {
      "rank": 69,
      "name": "Byklestøylane Camping (Bykle)",
      "lat": 59.3894,
      "lon": 7.3929,
      "score": 0.562,
      "avg_temp_c": 16.0,
      "avg_sun_hours": 13.6,
      "avg_wind_kmh": 14.5,
      "avg_precip_prob": 45.0
    },
    {
      "rank": 70,
      "name": "Getteröns Camping (Varberg)",
      "lat": 57.1165,
      "lon": 12.2141,
      "score": 0.562,
      "avg_temp_c": 19.5,
      "avg_sun_hours": 12.0,
      "avg_wind_kmh": 42.6,
      "avg_precip_prob": 49.0
    },
    {
      "rank": 71,
      "name": "Gjøvik Campingsenter",
      "lat": 60.8195,
      "lon": 10.6776,
      "score": 0.561,
      "avg_temp_c": 20.3,
      "avg_sun_hours": 9.1,
      "avg_wind_kmh": 15.0,
      "avg_precip_prob": 59.0
    },
    {
      "rank": 72,
      "name": "Olofsbo Camping (Falkenberg)",
      "lat": 56.9229,
      "lon": 12.3924,
      "score": 0.56,
      "avg_temp_c": 19.6,
      "avg_sun_hours": 12.0,
      "avg_wind_kmh": 41.7,
      "avg_precip_prob": 54.0
    },
    {
      "rank": 73,
      "name": "Halmstad",
      "lat": 56.6745,
      "lon": 12.8567,
      "score": 0.559,
      "avg_temp_c": 20.4,
      "avg_sun_hours": 10.3,
      "avg_wind_kmh": 32.7,
      "avg_precip_prob": 56.0
    },
    {
      "rank": 74,
      "name": "Destination Apelviken (Varberg)",
      "lat": 57.088,
      "lon": 12.2479,
      "score": 0.557,
      "avg_temp_c": 19.4,
      "avg_sun_hours": 12.0,
      "avg_wind_kmh": 43.0,
      "avg_precip_prob": 49.0
    },
    {
      "rank": 75,
      "name": "Esbjerg Camping A/S",
      "lat": 55.5128,
      "lon": 8.3886,
      "score": 0.557,
      "avg_temp_c": 18.8,
      "avg_sun_hours": 12.1,
      "avg_wind_kmh": 33.0,
      "avg_precip_prob": 54.0
    },
    {
      "rank": 76,
      "name": "Sandbybadets Camping (Öland)",
      "lat": 57.1739,
      "lon": 17.0374,
      "score": 0.556,
      "avg_temp_c": 20.9,
      "avg_sun_hours": 9.2,
      "avg_wind_kmh": 24.4,
      "avg_precip_prob": 62.0
    },
    {
      "rank": 77,
      "name": "Hansagård Camping Strand (Falkenberg)",
      "lat": 56.8721,
      "lon": 12.527,
      "score": 0.556,
      "avg_temp_c": 19.7,
      "avg_sun_hours": 11.6,
      "avg_wind_kmh": 40.0,
      "avg_precip_prob": 54.0
    },
    {
      "rank": 78,
      "name": "Martin's Smokehouse and Camping (Yngsjö)",
      "lat": 55.8608,
      "lon": 14.2204,
      "score": 0.554,
      "avg_temp_c": 21.1,
      "avg_sun_hours": 8.2,
      "avg_wind_kmh": 26.9,
      "avg_precip_prob": 45.0
    },
    {
      "rank": 79,
      "name": "Rystad Lofoten Camping",
      "lat": 68.2778,
      "lon": 14.3035,
      "score": 0.552,
      "avg_temp_c": 16.5,
      "avg_sun_hours": 12.1,
      "avg_wind_kmh": 13.8,
      "avg_precip_prob": 35.0
    },
    {
      "rank": 80,
      "name": "Sveastranda Camping (Gjøvik)",
      "lat": 60.889,
      "lon": 10.6757,
      "score": 0.548,
      "avg_temp_c": 19.6,
      "avg_sun_hours": 10.0,
      "avg_wind_kmh": 19.0,
      "avg_precip_prob": 61.0
    },
    {
      "rank": 81,
      "name": "Hansagårds Camping (Falkenberg)",
      "lat": 56.8744,
      "lon": 12.5298,
      "score": 0.547,
      "avg_temp_c": 19.8,
      "avg_sun_hours": 10.9,
      "avg_wind_kmh": 36.7,
      "avg_precip_prob": 54.0
    },
    {
      "rank": 82,
      "name": "Wohnmobil-Parkplatz Strandvegen (Hamar)",
      "lat": 60.802,
      "lon": 11.0264,
      "score": 0.545,
      "avg_temp_c": 19.7,
      "avg_sun_hours": 9.3,
      "avg_wind_kmh": 17.5,
      "avg_precip_prob": 54.0
    },
    {
      "rank": 83,
      "name": "KronoCamping Saxnäs (Öland)",
      "lat": 56.6863,
      "lon": 16.4836,
      "score": 0.541,
      "avg_temp_c": 21.6,
      "avg_sun_hours": 8.7,
      "avg_wind_kmh": 25.6,
      "avg_precip_prob": 76.0
    },
    {
      "rank": 84,
      "name": "Campervan parking (Ystad)",
      "lat": 55.4249,
      "lon": 13.7864,
      "score": 0.537,
      "avg_temp_c": 20.9,
      "avg_sun_hours": 8.5,
      "avg_wind_kmh": 31.7,
      "avg_precip_prob": 48.0
    },
    {
      "rank": 85,
      "name": "Mälarbadens camping (Mälaren)",
      "lat": 59.4517,
      "lon": 16.4366,
      "score": 0.536,
      "avg_temp_c": 19.7,
      "avg_sun_hours": 10.1,
      "avg_wind_kmh": 19.9,
      "avg_precip_prob": 71.0
    },
    {
      "rank": 86,
      "name": "København",
      "lat": 55.6761,
      "lon": 12.5683,
      "score": 0.533,
      "avg_temp_c": 20.3,
      "avg_sun_hours": 9.0,
      "avg_wind_kmh": 29.9,
      "avg_precip_prob": 49.0
    },
    {
      "rank": 87,
      "name": "Rena camping leisure",
      "lat": 61.1384,
      "lon": 11.3796,
      "score": 0.532,
      "avg_temp_c": 19.5,
      "avg_sun_hours": 9.5,
      "avg_wind_kmh": 14.1,
      "avg_precip_prob": 67.0
    },
    {
      "rank": 88,
      "name": "Ystad Camping (Fritidsvägen)",
      "lat": 55.4326,
      "lon": 13.8624,
      "score": 0.529,
      "avg_temp_c": 20.9,
      "avg_sun_hours": 8.2,
      "avg_wind_kmh": 31.3,
      "avg_precip_prob": 48.0
    },
    {
      "rank": 89,
      "name": "Bøflaten Camping (Vang i Valdres)",
      "lat": 61.1306,
      "lon": 8.5445,
      "score": 0.527,
      "avg_temp_c": 17.5,
      "avg_sun_hours": 11.1,
      "avg_wind_kmh": 15.4,
      "avg_precip_prob": 52.0
    },
    {
      "rank": 90,
      "name": "Lothepus camping og hytter (Odda)",
      "lat": 60.0649,
      "lon": 6.5529,
      "score": 0.524,
      "avg_temp_c": 19.7,
      "avg_sun_hours": 10.0,
      "avg_wind_kmh": 6.1,
      "avg_precip_prob": 99.0
    },
    {
      "rank": 91,
      "name": "Vita Sands Camping (Kalmar)",
      "lat": 56.5686,
      "lon": 16.2251,
      "score": 0.524,
      "avg_temp_c": 21.7,
      "avg_sun_hours": 7.9,
      "avg_wind_kmh": 24.7,
      "avg_precip_prob": 75.0
    },
    {
      "rank": 92,
      "name": "First Camp Västerås (Mälaren)",
      "lat": 59.5745,
      "lon": 16.5199,
      "score": 0.523,
      "avg_temp_c": 20.3,
      "avg_sun_hours": 9.0,
      "avg_wind_kmh": 20.3,
      "avg_precip_prob": 71.0
    },
    {
      "rank": 93,
      "name": "Topcamp Mjøsa (Brumunddal)",
      "lat": 60.8795,
      "lon": 10.8907,
      "score": 0.521,
      "avg_temp_c": 20.0,
      "avg_sun_hours": 8.8,
      "avg_wind_kmh": 17.7,
      "avg_precip_prob": 66.0
    },
    {
      "rank": 94,
      "name": "Sannes Familiecamping (Bornholm)",
      "lat": 55.1959,
      "lon": 14.9865,
      "score": 0.501,
      "avg_temp_c": 19.9,
      "avg_sun_hours": 8.6,
      "avg_wind_kmh": 40.8,
      "avg_precip_prob": 34.0
    },
    {
      "rank": 95,
      "name": "Sandviks Camping (Öland)",
      "lat": 56.379,
      "lon": 16.4036,
      "score": 0.5,
      "avg_temp_c": 21.6,
      "avg_sun_hours": 7.8,
      "avg_wind_kmh": 30.7,
      "avg_precip_prob": 75.0
    },
    {
      "rank": 96,
      "name": "Harge Bad & Camping (Vättern)",
      "lat": 58.7838,
      "lon": 14.9737,
      "score": 0.5,
      "avg_temp_c": 19.6,
      "avg_sun_hours": 8.4,
      "avg_wind_kmh": 18.7,
      "avg_precip_prob": 60.0
    },
    {
      "rank": 97,
      "name": "Vätterviksbadet (Vadstena, Vättern)",
      "lat": 58.4656,
      "lon": 14.9333,
      "score": 0.499,
      "avg_temp_c": 19.5,
      "avg_sun_hours": 9.8,
      "avg_wind_kmh": 29.2,
      "avg_precip_prob": 68.0
    },
    {
      "rank": 98,
      "name": "First Camp Gränna (Vättern)",
      "lat": 58.0277,
      "lon": 14.4582,
      "score": 0.499,
      "avg_temp_c": 19.7,
      "avg_sun_hours": 9.1,
      "avg_wind_kmh": 21.4,
      "avg_precip_prob": 72.0
    },
    {
      "rank": 99,
      "name": "Mariefreds Camping (Mälaren)",
      "lat": 59.2632,
      "lon": 17.2556,
      "score": 0.495,
      "avg_temp_c": 20.5,
      "avg_sun_hours": 8.1,
      "avg_wind_kmh": 20.8,
      "avg_precip_prob": 75.0
    },
    {
      "rank": 100,
      "name": "Askevik Camping (Vänern)",
      "lat": 58.8889,
      "lon": 14.0135,
      "score": 0.489,
      "avg_temp_c": 19.3,
      "avg_sun_hours": 9.0,
      "avg_wind_kmh": 24.8,
      "avg_precip_prob": 61.0
    },
    {
      "rank": 101,
      "name": "Evedals Camping (Växjö)",
      "lat": 56.9228,
      "lon": 14.8178,
      "score": 0.487,
      "avg_temp_c": 20.4,
      "avg_sun_hours": 8.2,
      "avg_wind_kmh": 22.9,
      "avg_precip_prob": 76.0
    },
    {
      "rank": 102,
      "name": "Öjaby Camping (Växjö)",
      "lat": 56.9011,
      "lon": 14.7396,
      "score": 0.486,
      "avg_temp_c": 20.3,
      "avg_sun_hours": 8.2,
      "avg_wind_kmh": 21.6,
      "avg_precip_prob": 76.0
    },
    {
      "rank": 103,
      "name": "Lovsjöbadens Camping (Jönköping)",
      "lat": 57.6626,
      "lon": 14.1837,
      "score": 0.486,
      "avg_temp_c": 19.4,
      "avg_sun_hours": 8.8,
      "avg_wind_kmh": 15.9,
      "avg_precip_prob": 76.0
    },
    {
      "rank": 104,
      "name": "Gudhjem Camping (Bornholm)",
      "lat": 55.2077,
      "lon": 14.9771,
      "score": 0.482,
      "avg_temp_c": 19.7,
      "avg_sun_hours": 8.3,
      "avg_wind_kmh": 41.4,
      "avg_precip_prob": 34.0
    },
    {
      "rank": 105,
      "name": "Olympiaparken sommercamping (Lillehammer)",
      "lat": 61.1329,
      "lon": 10.506,
      "score": 0.475,
      "avg_temp_c": 17.1,
      "avg_sun_hours": 10.5,
      "avg_wind_kmh": 15.1,
      "avg_precip_prob": 63.0
    },
    {
      "rank": 106,
      "name": "Lofoten Fjordcamp",
      "lat": 68.204,
      "lon": 13.8875,
      "score": 0.47,
      "avg_temp_c": 15.6,
      "avg_sun_hours": 10.8,
      "avg_wind_kmh": 16.0,
      "avg_precip_prob": 36.0
    },
    {
      "rank": 107,
      "name": "Fide Äventyrsby & Camping (Gotland)",
      "lat": 57.092,
      "lon": 18.301,
      "score": 0.469,
      "avg_temp_c": 20.6,
      "avg_sun_hours": 7.8,
      "avg_wind_kmh": 27.8,
      "avg_precip_prob": 76.0
    },
    {
      "rank": 108,
      "name": "Bornholms Familie-Camping",
      "lat": 55.0051,
      "lon": 15.0951,
      "score": 0.458,
      "avg_temp_c": 19.3,
      "avg_sun_hours": 8.6,
      "avg_wind_kmh": 39.6,
      "avg_precip_prob": 48.0
    },
    {
      "rank": 109,
      "name": "Gålö Havsbad (Stockholm skärgård)",
      "lat": 59.0951,
      "lon": 18.3184,
      "score": 0.45,
      "avg_temp_c": 20.3,
      "avg_sun_hours": 7.5,
      "avg_wind_kmh": 21.0,
      "avg_precip_prob": 86.0
    },
    {
      "rank": 110,
      "name": "Lofoten Bobilcamping",
      "lat": 68.2253,
      "lon": 14.2172,
      "score": 0.444,
      "avg_temp_c": 16.4,
      "avg_sun_hours": 9.0,
      "avg_wind_kmh": 16.8,
      "avg_precip_prob": 35.0
    },
    {
      "rank": 111,
      "name": "Møllers Dueodde Camping (Bornholm)",
      "lat": 54.9958,
      "lon": 15.0789,
      "score": 0.434,
      "avg_temp_c": 18.9,
      "avg_sun_hours": 8.5,
      "avg_wind_kmh": 41.6,
      "avg_precip_prob": 48.0
    },
    {
      "rank": 112,
      "name": "Laerdal Holiday and Leisure Park",
      "lat": 61.1005,
      "lon": 7.4697,
      "score": 0.424,
      "avg_temp_c": 18.0,
      "avg_sun_hours": 9.1,
      "avg_wind_kmh": 11.3,
      "avg_precip_prob": 95.0
    },
    {
      "rank": 113,
      "name": "Brädäng Camping (Stockholm)",
      "lat": 59.2956,
      "lon": 17.9232,
      "score": 0.414,
      "avg_temp_c": 19.6,
      "avg_sun_hours": 6.9,
      "avg_wind_kmh": 20.6,
      "avg_precip_prob": 81.0
    },
    {
      "rank": 114,
      "name": "Solhaga Camping (Fårö)",
      "lat": 57.8899,
      "lon": 19.091,
      "score": 0.414,
      "avg_temp_c": 19.5,
      "avg_sun_hours": 7.8,
      "avg_wind_kmh": 28.8,
      "avg_precip_prob": 82.0
    },
    {
      "rank": 115,
      "name": "Lyngholt Familiecamping (Bornholm)",
      "lat": 55.2555,
      "lon": 14.7623,
      "score": 0.412,
      "avg_temp_c": 17.8,
      "avg_sun_hours": 8.4,
      "avg_wind_kmh": 41.9,
      "avg_precip_prob": 34.0
    },
    {
      "rank": 116,
      "name": "Kneippbyn Camping (Gotland)",
      "lat": 57.6097,
      "lon": 18.2428,
      "score": 0.407,
      "avg_temp_c": 19.7,
      "avg_sun_hours": 8.0,
      "avg_wind_kmh": 36.6,
      "avg_precip_prob": 82.0
    },
    {
      "rank": 117,
      "name": "First Camp Beitostølen (Valdres)",
      "lat": 61.2413,
      "lon": 8.92,
      "score": 0.387,
      "avg_temp_c": 13.7,
      "avg_sun_hours": 10.6,
      "avg_wind_kmh": 17.5,
      "avg_precip_prob": 36.0
    },
    {
      "rank": 118,
      "name": "Askrike Camping (Vaxholm)",
      "lat": 59.3868,
      "lon": 18.2441,
      "score": 0.385,
      "avg_temp_c": 19.5,
      "avg_sun_hours": 6.4,
      "avg_wind_kmh": 18.6,
      "avg_precip_prob": 90.0
    },
    {
      "rank": 119,
      "name": "Stavanger",
      "lat": 58.97,
      "lon": 5.7331,
      "score": 0.381,
      "avg_temp_c": 16.9,
      "avg_sun_hours": 9.6,
      "avg_wind_kmh": 27.0,
      "avg_precip_prob": 79.0
    },
    {
      "rank": 120,
      "name": "Mosvangen Camping (Stavanger)",
      "lat": 58.9524,
      "lon": 5.714,
      "score": 0.373,
      "avg_temp_c": 16.7,
      "avg_sun_hours": 9.4,
      "avg_wind_kmh": 25.0,
      "avg_precip_prob": 79.0
    },
    {
      "rank": 121,
      "name": "Hovden Fjellstoge (Setesdal)",
      "lat": 59.5794,
      "lon": 7.3891,
      "score": 0.359,
      "avg_temp_c": 13.9,
      "avg_sun_hours": 10.0,
      "avg_wind_kmh": 18.2,
      "avg_precip_prob": 45.0
    },
    {
      "rank": 122,
      "name": "Voss Camping",
      "lat": 60.6246,
      "lon": 6.4214,
      "score": 0.358,
      "avg_temp_c": 17.8,
      "avg_sun_hours": 7.4,
      "avg_wind_kmh": 10.5,
      "avg_precip_prob": 99.0
    },
    {
      "rank": 123,
      "name": "Haraldshaugen Camping (Haugesund)",
      "lat": 59.4277,
      "lon": 5.2585,
      "score": 0.348,
      "avg_temp_c": 16.3,
      "avg_sun_hours": 8.9,
      "avg_wind_kmh": 28.8,
      "avg_precip_prob": 69.0
    },
    {
      "rank": 124,
      "name": "Kjørnes Camping (Sogndal)",
      "lat": 61.2117,
      "lon": 7.121,
      "score": 0.348,
      "avg_temp_c": 17.2,
      "avg_sun_hours": 7.8,
      "avg_wind_kmh": 13.0,
      "avg_precip_prob": 95.0
    },
    {
      "rank": 125,
      "name": "Uteplassen Sogndal Fjell og natur-camping",
      "lat": 61.3391,
      "lon": 6.9264,
      "score": 0.324,
      "avg_temp_c": 15.3,
      "avg_sun_hours": 9.0,
      "avg_wind_kmh": 9.0,
      "avg_precip_prob": 95.0
    },
    {
      "rank": 126,
      "name": "Førde Bobilparkering",
      "lat": 61.4581,
      "lon": 5.8464,
      "score": 0.299,
      "avg_temp_c": 17.3,
      "avg_sun_hours": 6.0,
      "avg_wind_kmh": 8.7,
      "avg_precip_prob": 100.0
    },
    {
      "rank": 127,
      "name": "Veganeset Camping (Balestrand)",
      "lat": 61.2158,
      "lon": 6.562,
      "score": 0.299,
      "avg_temp_c": 16.0,
      "avg_sun_hours": 7.8,
      "avg_wind_kmh": 11.3,
      "avg_precip_prob": 100.0
    },
    {
      "rank": 128,
      "name": "Lone Camping (Bergen)",
      "lat": 60.3735,
      "lon": 5.4592,
      "score": 0.297,
      "avg_temp_c": 16.5,
      "avg_sun_hours": 7.4,
      "avg_wind_kmh": 15.6,
      "avg_precip_prob": 98.0
    },
    {
      "rank": 129,
      "name": "Moskenes Camping (Lofoten)",
      "lat": 67.9001,
      "lon": 13.0524,
      "score": 0.297,
      "avg_temp_c": 13.9,
      "avg_sun_hours": 7.3,
      "avg_wind_kmh": 20.5,
      "avg_precip_prob": 28.0
    },
    {
      "rank": 130,
      "name": "Forde Guesthouse & Camping",
      "lat": 61.4496,
      "lon": 5.8922,
      "score": 0.291,
      "avg_temp_c": 17.1,
      "avg_sun_hours": 6.0,
      "avg_wind_kmh": 8.9,
      "avg_precip_prob": 100.0
    },
    {
      "rank": 131,
      "name": "Lofoten Beach Camp",
      "lat": 68.1032,
      "lon": 13.2946,
      "score": 0.289,
      "avg_temp_c": 14.6,
      "avg_sun_hours": 6.3,
      "avg_wind_kmh": 20.5,
      "avg_precip_prob": 30.0
    },
    {
      "rank": 132,
      "name": "Bratland Camping (Bergen)",
      "lat": 60.3523,
      "lon": 5.4353,
      "score": 0.284,
      "avg_temp_c": 16.6,
      "avg_sun_hours": 6.9,
      "avg_wind_kmh": 16.1,
      "avg_precip_prob": 98.0
    },
    {
      "rank": 133,
      "name": "Skjerva bobilparkering (Ålesund)",
      "lat": 62.4692,
      "lon": 6.1327,
      "score": 0.158,
      "avg_temp_c": 15.1,
      "avg_sun_hours": 5.6,
      "avg_wind_kmh": 26.5,
      "avg_precip_prob": 98.0
    },
    {
      "rank": 134,
      "name": "Krokane Camping AS (Florø)",
      "lat": 61.5935,
      "lon": 5.0712,
      "score": 0.142,
      "avg_temp_c": 14.8,
      "avg_sun_hours": 5.4,
      "avg_wind_kmh": 28.0,
      "avg_precip_prob": 94.0
    },
    {
      "rank": 135,
      "name": "Storsand Gård Camping (Trondheim)",
      "lat": 63.4322,
      "lon": 10.7086,
      "score": 0.118,
      "avg_temp_c": 14.9,
      "avg_sun_hours": 3.8,
      "avg_wind_kmh": 19.2,
      "avg_precip_prob": 95.0
    }
  ]
}